[{"display_name": "\u041a\u0430\u043b\u043c\u044b\u0446\u043a\u043e-\u041c\u044b\u0441\u043e\u0432\u0441\u043a\u043e\u0439 \u0441\u0435\u043b\u044c\u0441\u043e\u0432\u0435\u0442, \u041f\u043e\u0441\u043f\u0435\u043b\u0438\u0445\u0438\u043d\u0441\u043a\u0438\u0439 \u0440\u0430\u0439\u043e\u043d, \u0410\u043b\u0442\u0430\u0439\u0441\u043a\u0438\u0439 \u043a\u0440\u0430\u0439, \u0421\u0438\u0431\u0438\u0440\u0441\u043a\u0438\u0439 \u0444\u0435\u0434\u0435\u0440\u0430\u043b\u044c\u043d\u044b\u0439 \u043e\u043a\u0440\u0443\u0433, 659715, \u0420\u043e\u0441\u0441\u0438\u044f", "lat": 51.8763046, "lon": 82.2520877809414, "address": {"municipality": "\u041a\u0430\u043b\u043c\u044b\u0446\u043a\u043e-\u041c\u044b\u0441\u043e\u0432\u0441\u043a\u043e\u0439 \u0441\u0435\u043b\u044c\u0441\u043e\u0432\u0435\u0442", "county": "\u041f\u043e\u0441\u043f\u0435\u043b\u0438\u0445\u0438\u043d\u0441\u043a\u0438\u0439 \u0440\u0430\u0439\u043e\u043d", "state": "\u0410\u043b\u0442\u0430\u0439\u0441\u043a\u0438\u0439 \u043a\u0440\u0430\u0439", "region": "\u0421\u0438\u0431\u0438\u0440\u0441\u043a\u0438\u0439 \u0444\u0435\u0434\u0435\u0440\u0430\u043b\u044c\u043d\u044b\u0439 \u043e\u043a\u0440\u0443\u0433", "postcode": "659715", "country": "\u0420\u043e\u0441\u0441\u0438\u044f", "country_code": "ru"}}, {"display_name": "Gwich'in Settlement Area, Northwest Territories, Canada", "lat": 66.39703245, "lon": -132.89541135202887, "address": {"state_district": "Gwich'in Settlement Area", "state": "Northwest Territories", "country": "Canada", "country_code": "ca"}}, {"display_name": "Laasqoray \u0644\u0627\u0633\u0642\u0631\u0649, \u0633\u0646\u0627\u062c Sanaag, \u062c\u0645\u0647\u0648\u0631\u064a\u0629 \u0623\u0631\u0636 \u0627\u0644\u0635\u0648\u0645\u0627\u0644 Jamhuuriyadda Soomaaliland", "lat": 10.549824699999999, "lon": 48.796662066937316, "address": {"county": "Laasqoray \u0644\u0627\u0633\u0642\u0631\u0649", "state": "\u0633\u0646\u0627\u062c Sanaag", "country": "\u062c\u0645\u0647\u0648\u0631\u064a\u0629 \u0623\u0631\u0636 \u0627\u0644\u0635\u0648\u0645\u0627\u0644 Jamhuuriyadda Soomaaliland", "country_code": "so"}}, {"display_name": "Scottsville Road, Barren County, Kentucky, 42141, United States", "lat": 36.86356589311959, "lon": -86.04355419340264, "address": {"road": "Scottsville Road", "county": "Barren County", "state": "Kentucky", "postcode": "42141", "country": "United States", "country_code": "us"}}, {"display_name": "Kwango, R\u00e9publique d\u00e9mocratique du Congo", "lat": -6.18223815, "lon": 17.77116912045757, "address": {"state": "Kwango", "country": "R\u00e9publique d\u00e9mocratique du Congo", "country_code": "cd"}}, {"display_name": "Cunani, Cal\u00e7oene, Microrregi\u00e3o de Oiapoque, Amap\u00e1, Regi\u00e3o Norte, Brasil", "lat": 3.222, "lon": -51.120283950617285, "address": {"city_district": "Cunani", "village": "Cal\u00e7oene", "municipality": "Microrregi\u00e3o de Oiapoque", "state": "Amap\u00e1", "region": "Regi\u00e3o Norte", "country": "Brasil", "country_code": "br"}}, {"display_name": "Dovre, Innlandet, Norge", "lat": 62.11462645, "lon": 9.440367091535318, "address": {"municipality": "Dovre", "county": "Innlandet", "country": "Norge", "country_code": "no"}}, {"display_name": "\u146d\u1559\u14ea\u14d5\u1585 Kivalliq Region, \u14c4\u14c7\u1557\u1466 Nunavut, Canada", "lat": 63.5511048, "lon": -92.6471525, "address": {"county": "\u146d\u1559\u14ea\u14d5\u1585 Kivalliq Region", "state": "\u14c4\u14c7\u1557\u1466 Nunavut", "country": "Canada", "country_code": "ca"}}, {"display_name": "\u041e\u043c\u0441\u0443\u043a\u0447\u0430\u043d\u0441\u043a\u0438\u0439 \u0433\u043e\u0440\u043e\u0434\u0441\u043a\u043e\u0439 \u043e\u043a\u0440\u0443\u0433, \u041c\u0430\u0433\u0430\u0434\u0430\u043d\u0441\u043a\u0430\u044f \u043e\u0431\u043b\u0430\u0441\u0442\u044c, \u0414\u0430\u043b\u044c\u043d\u0435\u0432\u043e\u0441\u0442\u043e\u0447\u043d\u044b\u0439 \u0444\u0435\u0434\u0435\u0440\u0430\u043b\u044c\u043d\u044b\u0439 \u043e\u043a\u0440\u0443\u0433, 686410, \u0420\u043e\u0441\u0441\u0438\u044f", "lat": 62.963589999999996, "lon": 156.435401621538, "address": {"county": "\u041e\u043c\u0441\u0443\u043a\u0447\u0430\u043d\u0441\u043a\u0438\u0439 \u0433\u043e\u0440\u043e\u0434\u0441\u043a\u043e\u0439 \u043e\u043a\u0440\u0443\u0433", "state": "\u041c\u0430\u0433\u0430\u0434\u0430\u043d\u0441\u043a\u0430\u044f \u043e\u0431\u043b\u0430\u0441\u0442\u044c", "region": "\u0414\u0430\u043b\u044c\u043d\u0435\u0432\u043e\u0441\u0442\u043e\u0447\u043d\u044b\u0439 \u0444\u0435\u0434\u0435\u0440\u0430\u043b\u044c\u043d\u044b\u0439 \u043e\u043a\u0440\u0443\u0433", "postcode": "686410", "country": "\u0420\u043e\u0441\u0441\u0438\u044f", "country_code": "ru"}}, {"display_name": "\u7fa4\u534e\u8def, \u84ec\u6c5f\u533a, \u6c5f\u95e8\u5e02, \u5e7f\u4e1c\u7701, \u4e2d\u56fd", "lat": 22.6177126, "lon": 113.0324527, "address": {"road": "\u7fa4\u534e\u8def", "district": "\u84ec\u6c5f\u533a", "city": "\u6c5f\u95e8\u5e02", "state": "\u5e7f\u4e1c\u7701", "country": "\u4e2d\u56fd", "country_code": "cn"}}, {"display_name": "Xudun, Sool \u0633\u0648\u0644, \u062c\u0645\u0647\u0648\u0631\u064a\u0629 \u0623\u0631\u0636 \u0627\u0644\u0635\u0648\u0645\u0627\u0644 Jamhuuriyadda Soomaaliland", "lat": 9.136121249999999, "lon": 47.486904011183995, "address": {"county": "Xudun", "state": "Sool \u0633\u0648\u0644", "country": "\u062c\u0645\u0647\u0648\u0631\u064a\u0629 \u0623\u0631\u0636 \u0627\u0644\u0635\u0648\u0645\u0627\u0644 Jamhuuriyadda Soomaaliland", "country_code": "so"}}, {"display_name": "\u041e\u043a\u0442\u044f\u0431\u0440\u044c\u0441\u043a\u043e\u0435 \u0441\u0435\u043b\u044c\u0441\u043a\u043e\u0435 \u043f\u043e\u0441\u0435\u043b\u0435\u043d\u0438\u0435, \u041f\u0435\u0440\u0435\u043b\u044e\u0431\u0441\u043a\u0438\u0439 \u0440\u0430\u0439\u043e\u043d, \u0421\u0430\u0440\u0430\u0442\u043e\u0432\u0441\u043a\u0430\u044f \u043e\u0431\u043b\u0430\u0441\u0442\u044c, \u041f\u0440\u0438\u0432\u043e\u043b\u0436\u0441\u043a\u0438\u0439 \u0444\u0435\u0434\u0435\u0440\u0430\u043b\u044c\u043d\u044b\u0439 \u043e\u043a\u0440\u0443\u0433, \u0420\u043e\u0441\u0441\u0438\u044f", "lat": 51.91418935, "lon": 50.045527695865005, "address": {"municipality": "\u041e\u043a\u0442\u044f\u0431\u0440\u044c\u0441\u043a\u043e\u0435 \u0441\u0435\u043b\u044c\u0441\u043a\u043e\u0435 \u043f\u043e\u0441\u0435\u043b\u0435\u043d\u0438\u0435", "county": "\u041f\u0435\u0440\u0435\u043b\u044e\u0431\u0441\u043a\u0438\u0439 \u0440\u0430\u0439\u043e\u043d", "state": "\u0421\u0430\u0440\u0430\u0442\u043e\u0432\u0441\u043a\u0430\u044f \u043e\u0431\u043b\u0430\u0441\u0442\u044c", "region": "\u041f\u0440\u0438\u0432\u043e\u043b\u0436\u0441\u043a\u0438\u0439 \u0444\u0435\u0434\u0435\u0440\u0430\u043b\u044c\u043d\u044b\u0439 \u043e\u043a\u0440\u0443\u0433", "country": "\u0420\u043e\u0441\u0441\u0438\u044f", "country_code": "ru"}}, {"display_name": "Sulawesi Barat, Indonesia", "lat": -2.4974546, "lon": 119.3918955, "address": {"state": "Sulawesi Barat", "country": "Indonesia", "country_code": "id"}}, {"display_name": "Autopista Guadalajara - Morelia, Zapotlanejo, Jalisco, 45438, M\u00e9xico", "lat": 20.60023352315598, "lon": -103.11814624566215, "address": {"road": "Autopista Guadalajara - Morelia", "county": "Zapotlanejo", "state": "Jalisco", "postcode": "45438", "country": "M\u00e9xico", "country_code": "mx"}}, {"display_name": "Boulevard Mobutu, Matari, Tely, Isiro, Haut-Uele, R\u00e9publique d\u00e9mocratique du Congo", "lat": 2.8097926198659926, "lon": 27.588349737503872, "address": {"road": "Boulevard Mobutu", "residential": "Matari", "suburb": "Tely", "city": "Isiro", "state": "Haut-Uele", "country": "R\u00e9publique d\u00e9mocratique du Congo", "country_code": "cd"}}, {"display_name": "\u157f\u146d\u1585\u1456\u14d7\u1483 Qikiqtaaluk Region, \u14c4\u14c7\u1557\u1466 Nunavut, Canada", "lat": 76.9053119, "lon": -93.5025588, "address": {"county": "\u157f\u146d\u1585\u1456\u14d7\u1483 Qikiqtaaluk Region", "state": "\u14c4\u14c7\u1557\u1466 Nunavut", "country": "Canada", "country_code": "ca"}}, {"display_name": "8, Im Holtern, Schmiedekamp, Schwarzenbek, Herzogtum Lauenburg, Schleswig-Holstein, 21493, Deutschland", "lat": 53.4944894, "lon": 10.47654954558483, "address": {"house_number": "8", "road": "Im Holtern", "neighbourhood": "Im Holtern", "suburb": "Schmiedekamp", "town": "Schwarzenbek", "county": "Herzogtum Lauenburg", "state": "Schleswig-Holstein", "postcode": "21493", "country": "Deutschland", "country_code": "de"}}, {"display_name": "\u5927\u4f58\u592a\u9547, \u4e4c\u62c9\u7279\u524d\u65d7, \u5df4\u5f66\u6dd6\u5c14\u5e02, \u5185\u8499\u53e4\u81ea\u6cbb\u533a, \u4e2d\u56fd", "lat": 41.0196728, "lon": 109.1412643, "address": {"town": "\u5927\u4f58\u592a\u9547", "banner": "\u4e4c\u62c9\u7279\u524d\u65d7", "region": "\u5df4\u5f66\u6dd6\u5c14\u5e02", "state": "\u5185\u8499\u53e4\u81ea\u6cbb\u533a", "country": "\u4e2d\u56fd", "country_code": "cn"}}, {"display_name": "Thembisile Hani Ward 10, Thembisile Hani Local Municipality, Nkangala, Mpumalanga, South Africa", "lat": -25.4400423, "lon": 28.8900156, "address": {"suburb": "Thembisile Hani Ward 10", "city": "Thembisile Hani Local Municipality", "county": "Nkangala", "state": "Mpumalanga", "country": "South Africa", "country_code": "za"}}, {"display_name": "Novo Progresso, Microrregi\u00e3o de Itaituba, Regi\u00e3o Geogr\u00e1fica Intermedi\u00e1ria de Santar\u00e9m, Par\u00e1, Regi\u00e3o Norte, Brasil", "lat": -7.5911216, "lon": -55.242988, "address": {"city_district": "Novo Progresso", "town": "Novo Progresso", "municipality": "Microrregi\u00e3o de Itaituba", "state_district": "Regi\u00e3o Geogr\u00e1fica Intermedi\u00e1ria de Santar\u00e9m", "state": "Par\u00e1", "region": "Regi\u00e3o Norte", "country": "Brasil", "country_code": "br"}}, {"display_name": "\u146d\u1559\u14ea\u14d5\u1585 Kivalliq Region, \u14c4\u14c7\u1557\u1466 Nunavut, Canada", "lat": 63.5511048, "lon": -92.6471525, "address": {"county": "\u146d\u1559\u14ea\u14d5\u1585 Kivalliq Region", "state": "\u14c4\u14c7\u1557\u1466 Nunavut", "country": "Canada", "country_code": "ca"}}, {"display_name": "Carneiro, Bu\u00edque, Regi\u00e3o Geogr\u00e1fica Imediata de Arcoverde, Regi\u00e3o Geogr\u00e1fica Intermedi\u00e1ria de Caruaru, Pernambuco, Regi\u00e3o Nordeste, 56500-000, Brasil", "lat": -8.4581432, "lon": -37.1230735, "address": {"city_district": "Carneiro", "town": "Bu\u00edque", "municipality": "Regi\u00e3o Geogr\u00e1fica Imediata de Arcoverde", "state_district": "Regi\u00e3o Geogr\u00e1fica Intermedi\u00e1ria de Caruaru", "state": "Pernambuco", "region": "Regi\u00e3o Nordeste", "postcode": "56500-000", "country": "Brasil", "country_code": "br"}}, {"display_name": "US 87, Verona, Chouteau County, Montana, 49520, United States", "lat": 48.13312578516106, "lon": -110.17555394949851, "address": {"road": "US 87", "hamlet": "Verona", "county": "Chouteau County", "state": "Montana", "postcode": "49520", "country": "United States", "country_code": "us"}}, {"display_name": "Kalaallit Nunaat", "lat": 77.6192349, "lon": -42.8125967, "address": {"country": "Kalaallit Nunaat", "country_code": "gl"}}, {"display_name": "\u041a\u0430\u0440\u0430\u0442\u0430\u043b\u044c\u0441\u043a\u0438\u0439 \u0440\u0430\u0439\u043e\u043d, \u0410\u043b\u043c\u0430\u0442\u0438\u043d\u0441\u043a\u0430\u044f \u043e\u0431\u043b\u0430\u0441\u0442\u044c, \u049a\u0430\u0437\u0430\u049b\u0441\u0442\u0430\u043d", "lat": 45.892570899999996, "lon": 77.13932488696524, "address": {"county": "\u041a\u0430\u0440\u0430\u0442\u0430\u043b\u044c\u0441\u043a\u0438\u0439 \u0440\u0430\u0439\u043e\u043d", "state": "\u0410\u043b\u043c\u0430\u0442\u0438\u043d\u0441\u043a\u0430\u044f \u043e\u0431\u043b\u0430\u0441\u0442\u044c", "country": "\u049a\u0430\u0437\u0430\u049b\u0441\u0442\u0430\u043d", "country_code": "kz"}}, {"display_name": "communaut\u00e9 maritime des \u00celes-de-la-Madeleine, Gasp\u00e9sie\u2013\u00celes-de-la-Madeleine, Qu\u00e9bec, Canada", "lat": 47.4503778, "lon": -61.7290747, "address": {"county": "communaut\u00e9 maritime des \u00celes-de-la-Madeleine", "region": "Gasp\u00e9sie\u2013\u00celes-de-la-Madeleine", "state": "Qu\u00e9bec", "country": "Canada", "country_code": "ca"}}, {"display_name": "\u0636\u0644\u0639 \u0686\u0627\u063a\u06cc, \u0628\u0644\u0648\u0686\u0633\u062a\u0627\u0646, \u067e\u0627\u06a9\u0633\u062a\u0627\u0646", "lat": 28.8841915, "lon": 63.18607140305724, "address": {"county": "\u0636\u0644\u0639 \u0686\u0627\u063a\u06cc", "state": "\u0628\u0644\u0648\u0686\u0633\u062a\u0627\u0646", "country": "\u067e\u0627\u06a9\u0633\u062a\u0627\u0646", "country_code": "pk"}}, {"display_name": "Rivi\u00e8re-Koksoak, \u1472\u144e\u1555\u1483 Kativik, Nord-du-Qu\u00e9bec, Qu\u00e9bec, Canada", "lat": 58.72617495, "lon": -71.86613558194794, "address": {"city": "Rivi\u00e8re-Koksoak", "county": "\u1472\u144e\u1555\u1483 Kativik", "region": "Nord-du-Qu\u00e9bec", "state": "Qu\u00e9bec", "country": "Canada", "country_code": "ca"}}, {"display_name": "Unorganized Kenora District, Kenora District, Northwestern Ontario, Ontario, Canada", "lat": 52.9306043, "lon": -85.84905710077103, "address": {"city": "Unorganized Kenora District", "county": "Kenora District", "state_district": "Northwestern Ontario", "state": "Ontario", "country": "Canada", "country_code": "ca"}}, {"display_name": "\u9521\u5c3c\u6cb3\u897f\u82cf\u6728, \u9102\u6e29\u514b\u65cf\u81ea\u6cbb\u65d7, \u547c\u4f26\u8d1d\u5c14\u5e02, \u5185\u8499\u53e4\u81ea\u6cbb\u533a, \u4e2d\u56fd", "lat": 48.29772305, "lon": 119.61454708202157, "address": {"suburb": "\u9521\u5c3c\u6cb3\u897f\u82cf\u6728", "banner": "\u9102\u6e29\u514b\u65cf\u81ea\u6cbb\u65d7", "city": "\u547c\u4f26\u8d1d\u5c14\u5e02", "state": "\u5185\u8499\u53e4\u81ea\u6cbb\u533a", "country": "\u4e2d\u56fd", "country_code": "cn"}}, {"display_name": "6408, Ozora, Tam\u00e1si j\u00e1r\u00e1s, Tolna megye, D\u00e9l-Dun\u00e1nt\u00fal, Dun\u00e1nt\u00fal, 7084, Magyarorsz\u00e1g", "lat": 46.71878651680688, "lon": 18.41905532229823, "address": {"road": "6408", "village": "Ozora", "municipality": "Tam\u00e1si j\u00e1r\u00e1s", "county": "Tolna megye", "region": "D\u00e9l-Dun\u00e1nt\u00fal", "postcode": "7084", "country": "Magyarorsz\u00e1g", "country_code": "hu"}}, {"display_name": "\u5148\u9063\u4e61, \u6539\u5219\u53bf, \u963f\u91cc\u5730\u533a-\u65e5\u5580\u5219\u5e02\u8fb9\u754c, \u4e2d\u56fd", "lat": 33.1200631, "lon": 83.2962706, "address": {"town": "\u5148\u9063\u4e61", "county": "\u6539\u5219\u53bf", "region": "\u963f\u91cc\u5730\u533a-\u65e5\u5580\u5219\u5e02\u8fb9\u754c", "country": "\u4e2d\u56fd", "country_code": "cn"}}, {"display_name": "\u157f\u146d\u1585\u1456\u14d7\u1483 Qikiqtaaluk Region, \u14c4\u14c7\u1557\u1466 Nunavut, Canada", "lat": 76.9053119, "lon": -93.5025588, "address": {"county": "\u157f\u146d\u1585\u1456\u14d7\u1483 Qikiqtaaluk Region", "state": "\u14c4\u14c7\u1557\u1466 Nunavut", "country": "Canada", "country_code": "ca"}}, {"display_name": "\u157f\u146d\u1585\u1456\u14d7\u1483 Qikiqtaaluk Region, \u14c4\u14c7\u1557\u1466 Nunavut, Canada", "lat": 76.9053119, "lon": -93.5025588, "address": {"county": "\u157f\u146d\u1585\u1456\u14d7\u1483 Qikiqtaaluk Region", "state": "\u14c4\u14c7\u1557\u1466 Nunavut", "country": "Canada", "country_code": "ca"}}, {"display_name": "\u67e5\u5e72\u54c8\u8fbe\u82cf\u6728, \u8fbe\u5c14\u7f55\u8302\u660e\u5b89\u8054\u5408\u65d7, \u5305\u5934\u5e02, \u5185\u8499\u53e4\u81ea\u6cbb\u533a, 014000, \u4e2d\u56fd", "lat": 42.3532619, "lon": 110.60754559423695, "address": {"suburb": "\u67e5\u5e72\u54c8\u8fbe\u82cf\u6728", "banner": "\u8fbe\u5c14\u7f55\u8302\u660e\u5b89\u8054\u5408\u65d7", "city": "\u5305\u5934\u5e02", "state": "\u5185\u8499\u53e4\u81ea\u6cbb\u533a", "postcode": "014000", "country": "\u4e2d\u56fd", "country_code": "cn"}}, {"display_name": "Sahtu Region, Northwest Territories, Canada", "lat": 65.908921, "lon": -124.6590568, "address": {"county": "Sahtu Region", "state": "Northwest Territories", "country": "Canada", "country_code": "ca"}}, {"display_name": "\u9ec4\u9f99, \u6e0c\u53e3\u533a, \u682a\u6d32\u5e02, \u6e56\u5357\u7701, \u4e2d\u56fd", "lat": 27.3312197, "lon": 113.0684754, "address": {"village": "\u9ec4\u9f99", "district": "\u6e0c\u53e3\u533a", "region": "\u682a\u6d32\u5e02", "state": "\u6e56\u5357\u7701", "country": "\u4e2d\u56fd", "country_code": "cn"}}, {"display_name": "County Road 15, Corson County, South Dakota, United States", "lat": 45.51875720628316, "lon": -100.99776515605812, "address": {"road": "County Road 15", "county": "Corson County", "state": "South Dakota", "country": "United States", "country_code": "us"}}, {"display_name": "Bermuda Triangle", "lat": 22.1200939, "lon": -69.45785416527703, "address": {"locality": "Bermuda Triangle"}}, {"display_name": "\u6c11\u52e4\u53bf, \u6b66\u5a01\u5e02, \u7518\u8083\u7701, 733306, \u4e2d\u56fd", "lat": 38.753616, "lon": 103.168877, "address": {"county": "\u6c11\u52e4\u53bf", "city": "\u6b66\u5a01\u5e02", "state": "\u7518\u8083\u7701", "postcode": "733306", "country": "\u4e2d\u56fd", "country_code": "cn"}}, {"display_name": "\u0623\u0633\u0648\u0627\u0646, \u0645\u0635\u0631", "lat": 23.66752875, "lon": 32.69164766350305, "address": {"state": "\u0623\u0633\u0648\u0627\u0646", "country": "\u0645\u0635\u0631", "country_code": "eg"}}, {"display_name": "Insiza, Matabeleland South, Zimbabwe", "lat": -19.800031215142834, "lon": 28.954123634939325, "address": {"county": "Insiza", "state": "Matabeleland South", "country": "Zimbabwe", "country_code": "zw"}}, {"display_name": "\u0433\u043e\u0440\u043e\u0434\u0441\u043a\u043e\u0439 \u043e\u043a\u0440\u0443\u0433 \u042d\u0433\u0432\u0435\u043a\u0438\u043d\u043e\u0442, \u0427\u0443\u043a\u043e\u0442\u0441\u043a\u0438\u0439 \u0430\u0432\u0442\u043e\u043d\u043e\u043c\u043d\u044b\u0439 \u043e\u043a\u0440\u0443\u0433, \u0414\u0430\u043b\u044c\u043d\u0435\u0432\u043e\u0441\u0442\u043e\u0447\u043d\u044b\u0439 \u0444\u0435\u0434\u0435\u0440\u0430\u043b\u044c\u043d\u044b\u0439 \u043e\u043a\u0440\u0443\u0433, \u0420\u043e\u0441\u0441\u0438\u044f", "lat": 66.99598195, "lon": -177.3124189390669, "address": {"county": "\u0433\u043e\u0440\u043e\u0434\u0441\u043a\u043e\u0439 \u043e\u043a\u0440\u0443\u0433 \u042d\u0433\u0432\u0435\u043a\u0438\u043d\u043e\u0442", "state": "\u0427\u0443\u043a\u043e\u0442\u0441\u043a\u0438\u0439 \u0430\u0432\u0442\u043e\u043d\u043e\u043c\u043d\u044b\u0439 \u043e\u043a\u0440\u0443\u0433", "region": "\u0414\u0430\u043b\u044c\u043d\u0435\u0432\u043e\u0441\u0442\u043e\u0447\u043d\u044b\u0439 \u0444\u0435\u0434\u0435\u0440\u0430\u043b\u044c\u043d\u044b\u0439 \u043e\u043a\u0440\u0443\u0433", "country": "\u0420\u043e\u0441\u0441\u0438\u044f", "country_code": "ru"}}, {"display_name": "Lake Mackay, Central Desert Region, Northern Territory, Australia", "lat": -22.55674275, "lon": 129.8315991646113, "address": {"suburb": "Lake Mackay", "county": "Central Desert Region", "territory": "Northern Territory", "country": "Australia", "country_code": "au"}}, {"display_name": "Upper Nile, South Sudan", "lat": 9.0, "lon": 33.0, "address": {"state": "Upper Nile", "country": "South Sudan", "country_code": "ss"}}, {"display_name": "Lone Mountain Road, Broadwater County, Montana, United States", "lat": 46.108533034765884, "lon": -111.64482831804726, "address": {"road": "Lone Mountain Road", "county": "Broadwater County", "state": "Montana", "country": "United States", "country_code": "us"}}, {"display_name": "\u0433\u043e\u0440\u043e\u0434\u0441\u043a\u043e\u0435 \u043f\u043e\u0441\u0435\u043b\u0435\u043d\u0438\u0435 \u0414\u0438\u043a\u0441\u043e\u043d, \u0422\u0430\u0439\u043c\u044b\u0440\u0441\u043a\u0438\u0439 \u0414\u043e\u043b\u0433\u0430\u043d\u043e-\u041d\u0435\u043d\u0435\u0446\u043a\u0438\u0439 \u0440\u0430\u0439\u043e\u043d, \u041a\u0440\u0430\u0441\u043d\u043e\u044f\u0440\u0441\u043a\u0438\u0439 \u043a\u0440\u0430\u0439, \u0421\u0438\u0431\u0438\u0440\u0441\u043a\u0438\u0439 \u0444\u0435\u0434\u0435\u0440\u0430\u043b\u044c\u043d\u044b\u0439 \u043e\u043a\u0440\u0443\u0433, \u0420\u043e\u0441\u0441\u0438\u044f", "lat": 76.8175152, "lon": 100.78019727140472, "address": {"municipality": "\u0433\u043e\u0440\u043e\u0434\u0441\u043a\u043e\u0435 \u043f\u043e\u0441\u0435\u043b\u0435\u043d\u0438\u0435 \u0414\u0438\u043a\u0441\u043e\u043d", "county": "\u0422\u0430\u0439\u043c\u044b\u0440\u0441\u043a\u0438\u0439 \u0414\u043e\u043b\u0433\u0430\u043d\u043e-\u041d\u0435\u043d\u0435\u0446\u043a\u0438\u0439 \u0440\u0430\u0439\u043e\u043d", "state": "\u041a\u0440\u0430\u0441\u043d\u043e\u044f\u0440\u0441\u043a\u0438\u0439 \u043a\u0440\u0430\u0439", "region": "\u0421\u0438\u0431\u0438\u0440\u0441\u043a\u0438\u0439 \u0444\u0435\u0434\u0435\u0440\u0430\u043b\u044c\u043d\u044b\u0439 \u043e\u043a\u0440\u0443\u0433", "country": "\u0420\u043e\u0441\u0441\u0438\u044f", "country_code": "ru"}}, {"display_name": "\u0433\u043e\u0440\u043e\u0434\u0441\u043a\u043e\u0435 \u043f\u043e\u0441\u0435\u043b\u0435\u043d\u0438\u0435 \u0414\u0438\u043a\u0441\u043e\u043d, \u0422\u0430\u0439\u043c\u044b\u0440\u0441\u043a\u0438\u0439 \u0414\u043e\u043b\u0433\u0430\u043d\u043e-\u041d\u0435\u043d\u0435\u0446\u043a\u0438\u0439 \u0440\u0430\u0439\u043e\u043d, \u041a\u0440\u0430\u0441\u043d\u043e\u044f\u0440\u0441\u043a\u0438\u0439 \u043a\u0440\u0430\u0439, \u0421\u0438\u0431\u0438\u0440\u0441\u043a\u0438\u0439 \u0444\u0435\u0434\u0435\u0440\u0430\u043b\u044c\u043d\u044b\u0439 \u043e\u043a\u0440\u0443\u0433, \u0420\u043e\u0441\u0441\u0438\u044f", "lat": 76.8175152, "lon": 100.78019727140472, "address": {"municipality": "\u0433\u043e\u0440\u043e\u0434\u0441\u043a\u043e\u0435 \u043f\u043e\u0441\u0435\u043b\u0435\u043d\u0438\u0435 \u0414\u0438\u043a\u0441\u043e\u043d", "county": "\u0422\u0430\u0439\u043c\u044b\u0440\u0441\u043a\u0438\u0439 \u0414\u043e\u043b\u0433\u0430\u043d\u043e-\u041d\u0435\u043d\u0435\u0446\u043a\u0438\u0439 \u0440\u0430\u0439\u043e\u043d", "state": "\u041a\u0440\u0430\u0441\u043d\u043e\u044f\u0440\u0441\u043a\u0438\u0439 \u043a\u0440\u0430\u0439", "region": "\u0421\u0438\u0431\u0438\u0440\u0441\u043a\u0438\u0439 \u0444\u0435\u0434\u0435\u0440\u0430\u043b\u044c\u043d\u044b\u0439 \u043e\u043a\u0440\u0443\u0433", "country": "\u0420\u043e\u0441\u0441\u0438\u044f", "country_code": "ru"}}, {"display_name": "\u9648\u65d7\u56fd\u8425\u7279\u6ce5\u6cb3\u7267\u573a, \u9648\u5df4\u5c14\u864e\u65d7, \u547c\u4f26\u8d1d\u5c14\u5e02, \u5185\u8499\u53e4\u81ea\u6cbb\u533a, \u4e2d\u56fd", "lat": 49.350035637128066, "lon": 120.4843560289454, "address": {"suburb": "\u9648\u65d7\u56fd\u8425\u7279\u6ce5\u6cb3\u7267\u573a", "banner": "\u9648\u5df4\u5c14\u864e\u65d7", "city": "\u547c\u4f26\u8d1d\u5c14\u5e02", "state": "\u5185\u8499\u53e4\u81ea\u6cbb\u533a", "country": "\u4e2d\u56fd", "country_code": "cn"}}, {"display_name": "Avannaata, Kalaallit Nunaat", "lat": 74.96134359999999, "lon": -51.85824937385934, "address": {"state": "Avannaata", "country": "Kalaallit Nunaat", "country_code": "gl"}}, {"display_name": "Baulne-en-Brie, Vall\u00e9es-en-Champagne, Ch\u00e2teau-Thierry, Aisne, Hauts-de-France, France m\u00e9tropolitaine, 02330, France", "lat": 48.9991758, "lon": 3.603379, "address": {"city_district": "Baulne-en-Brie", "city": "Vall\u00e9es-en-Champagne", "municipality": "Ch\u00e2teau-Thierry", "county": "Aisne", "state": "Hauts-de-France", "country": "France", "postcode": "02330", "country_code": "fr"}}, {"display_name": "Sumatera Barat, Indonesia", "lat": -1.33589025, "lon": 100.07222762395327, "address": {"state": "Sumatera Barat", "country": "Indonesia", "country_code": "id"}}, {"display_name": "Funhalouro, Inhambane, Mo\u00e7ambique", "lat": -22.93507195, "lon": 34.26574165203215, "address": {"state_district": "Funhalouro", "state": "Inhambane", "country": "Mo\u00e7ambique", "country_code": "mz"}}, {"display_name": "Dand\u0101r, \u0636\u0644\u0639 \u06af\u0648\u0627\u062f\u0631 / Kech, \u0628\u0644\u0648\u0686\u0633\u062a\u0627\u0646, \u067e\u0627\u06a9\u0633\u062a\u0627\u0646", "lat": 26.1267, "lon": 64.4071, "address": {"village": "Dand\u0101r", "county": "\u0636\u0644\u0639 \u06af\u0648\u0627\u062f\u0631 / Kech", "state": "\u0628\u0644\u0648\u0686\u0633\u062a\u0627\u0646", "country": "\u067e\u0627\u06a9\u0633\u062a\u0627\u0646", "country_code": "pk"}}, {"display_name": "Telfer, Shire Of East Pilbara, Western Australia, Australia", "lat": -21.5177325, "lon": 123.52595630504817, "address": {"suburb": "Telfer", "municipality": "Shire Of East Pilbara", "state": "Western Australia", "country": "Australia", "country_code": "au"}}, {"display_name": "Lugala, Morogoro, Coastal Zone, 67000, Tanzania", "lat": -6.799240946041666, "lon": 37.572890286474355, "address": {"village": "Lugala", "state_district": "Morogoro", "state": "Morogoro", "region": "Coastal Zone", "postcode": "67000", "country": "Tanzania", "country_code": "tz"}}, {"display_name": "\u041a\u043e\u0441\u0442\u0438\u043d\u0441\u043a\u043e\u0435 \u0441\u0435\u043b\u044c\u0441\u043a\u043e\u0435 \u043f\u043e\u0441\u0435\u043b\u0435\u043d\u0438\u0435, \u041d\u0438\u0436\u043d\u0435\u0443\u0434\u0438\u043d\u0441\u043a\u0438\u0439 \u0440\u0430\u0439\u043e\u043d, \u0418\u0440\u043a\u0443\u0442\u0441\u043a\u0430\u044f \u043e\u0431\u043b\u0430\u0441\u0442\u044c, \u0421\u0438\u0431\u0438\u0440\u0441\u043a\u0438\u0439 \u0444\u0435\u0434\u0435\u0440\u0430\u043b\u044c\u043d\u044b\u0439 \u043e\u043a\u0440\u0443\u0433, \u0420\u043e\u0441\u0441\u0438\u044f", "lat": 55.6390418, "lon": 99.57554751894872, "address": {"municipality": "\u041a\u043e\u0441\u0442\u0438\u043d\u0441\u043a\u043e\u0435 \u0441\u0435\u043b\u044c\u0441\u043a\u043e\u0435 \u043f\u043e\u0441\u0435\u043b\u0435\u043d\u0438\u0435", "county": "\u041d\u0438\u0436\u043d\u0435\u0443\u0434\u0438\u043d\u0441\u043a\u0438\u0439 \u0440\u0430\u0439\u043e\u043d", "state": "\u0418\u0440\u043a\u0443\u0442\u0441\u043a\u0430\u044f \u043e\u0431\u043b\u0430\u0441\u0442\u044c", "region": "\u0421\u0438\u0431\u0438\u0440\u0441\u043a\u0438\u0439 \u0444\u0435\u0434\u0435\u0440\u0430\u043b\u044c\u043d\u044b\u0439 \u043e\u043a\u0440\u0443\u0433", "country": "\u0420\u043e\u0441\u0441\u0438\u044f", "country_code": "ru"}}, {"display_name": "Garissa, Northeast Kenya, Kenya", "lat": -0.52360305, "lon": 40.356386905787105, "address": {"state": "Garissa", "region": "Northeast Kenya", "country": "Kenya", "country_code": "ke"}}, {"display_name": "\u041a\u043b\u0456\u0442\u0435\u043d\u043a\u0430, \u0423\u043b\u0430\u043d\u0456\u0432\u0441\u044c\u043a\u0430 \u0441\u0456\u043b\u044c\u0441\u044c\u043a\u0430 \u0433\u0440\u043e\u043c\u0430\u0434\u0430, \u0425\u043c\u0456\u043b\u044c\u043d\u0438\u0446\u044c\u043a\u0438\u0439 \u0440\u0430\u0439\u043e\u043d, \u0412\u0456\u043d\u043d\u0438\u0446\u044c\u043a\u0430 \u043e\u0431\u043b\u0430\u0441\u0442\u044c, 13364, \u0423\u043a\u0440\u0430\u0457\u043d\u0430", "lat": 49.77495601149659, "lon": 28.346860734063412, "address": {"village": "\u041a\u043b\u0456\u0442\u0435\u043d\u043a\u0430", "municipality": "\u0423\u043b\u0430\u043d\u0456\u0432\u0441\u044c\u043a\u0430 \u0441\u0456\u043b\u044c\u0441\u044c\u043a\u0430 \u0433\u0440\u043e\u043c\u0430\u0434\u0430", "county": "\u0425\u043c\u0456\u043b\u044c\u043d\u0438\u0446\u044c\u043a\u0438\u0439 \u0440\u0430\u0439\u043e\u043d", "state": "\u0412\u0456\u043d\u043d\u0438\u0446\u044c\u043a\u0430 \u043e\u0431\u043b\u0430\u0441\u0442\u044c", "postcode": "13364", "country": "\u0423\u043a\u0440\u0430\u0457\u043d\u0430", "country_code": "ua"}}, {"display_name": "Barcelos, Microrregi\u00e3o do Rio Negro, Regi\u00e3o Geogr\u00e1fica Intermedi\u00e1ria de Manaus, Amazonas, Regi\u00e3o Norte, Brasil", "lat": -0.14150000000000001, "lon": -63.185880769230764, "address": {"city_district": "Barcelos", "town": "Barcelos", "municipality": "Microrregi\u00e3o do Rio Negro", "state_district": "Regi\u00e3o Geogr\u00e1fica Intermedi\u00e1ria de Manaus", "state": "Amazonas", "region": "Regi\u00e3o Norte", "country": "Brasil", "country_code": "br"}}, {"display_name": "\u00cdsland", "lat": 64.9841821, "lon": -18.1059013, "address": {"country": "\u00cdsland", "country_code": "is"}}, {"display_name": "Lewis Road, Wayne County, Indiana, 47345, United States", "lat": 39.93726454782299, "lon": -85.01655122000463, "address": {"road": "Lewis Road", "county": "Wayne County", "state": "Indiana", "postcode": "47345", "country": "United States", "country_code": "us"}}, {"display_name": "\u042d\u0432\u0435\u043d\u043a\u0438\u0439\u0441\u043a\u0438\u0439 \u0440\u0430\u0439\u043e\u043d, \u041a\u0440\u0430\u0441\u043d\u043e\u044f\u0440\u0441\u043a\u0438\u0439 \u043a\u0440\u0430\u0439, \u0421\u0438\u0431\u0438\u0440\u0441\u043a\u0438\u0439 \u0444\u0435\u0434\u0435\u0440\u0430\u043b\u044c\u043d\u044b\u0439 \u043e\u043a\u0440\u0443\u0433, \u0420\u043e\u0441\u0441\u0438\u044f", "lat": 64.26957825, "lon": 99.56091209819238, "address": {"county": "\u042d\u0432\u0435\u043d\u043a\u0438\u0439\u0441\u043a\u0438\u0439 \u0440\u0430\u0439\u043e\u043d", "state": "\u041a\u0440\u0430\u0441\u043d\u043e\u044f\u0440\u0441\u043a\u0438\u0439 \u043a\u0440\u0430\u0439", "region": "\u0421\u0438\u0431\u0438\u0440\u0441\u043a\u0438\u0439 \u0444\u0435\u0434\u0435\u0440\u0430\u043b\u044c\u043d\u044b\u0439 \u043e\u043a\u0440\u0443\u0433", "country": "\u0420\u043e\u0441\u0441\u0438\u044f", "country_code": "ru"}}, {"display_name": "\u0645\u062d\u0645\u062f \u0627\u0644\u0637\u0644\u0628, \u0646\u0627\u062d\u064a\u0629 \u0645\u0631\u06a9\u0632 \u0642\u0636\u0627\u0621 \u0627\u0644\u062f\u0648\u0631, \u0642\u0636\u0627\u0621 \u0627\u0644\u062f\u0648\u0631, \u0645\u062d\u0627\u0641\u0638\u0629 \u0635\u0644\u0627\u062d \u0627\u0644\u062f\u064a\u0646, \u0627\u0644\u0639\u0631\u0627\u0642 / \u0639\u06ce\u0631\u0627\u0642", "lat": 34.531468, "lon": 44.266053, "address": {"locality": "\u0645\u062d\u0645\u062f \u0627\u0644\u0637\u0644\u0628", "subdistrict": "\u0646\u0627\u062d\u064a\u0629 \u0645\u0631\u06a9\u0632 \u0642\u0636\u0627\u0621 \u0627\u0644\u062f\u0648\u0631", "district": "\u0642\u0636\u0627\u0621 \u0627\u0644\u062f\u0648\u0631", "state": "\u0645\u062d\u0627\u0641\u0638\u0629 \u0635\u0644\u0627\u062d \u0627\u0644\u062f\u064a\u0646", "country": "\u0627\u0644\u0639\u0631\u0627\u0642 / \u0639\u06ce\u0631\u0627\u0642", "country_code": "iq"}}, {"display_name": "\u0627\u0644\u0643\u0641\u0631\u0629, \u0644\u064a\u0628\u064a\u0627", "lat": 23.3323776, "lon": 22.0840331, "address": {"state": "\u0627\u0644\u0643\u0641\u0631\u0629", "country": "\u0644\u064a\u0628\u064a\u0627", "country_code": "ly"}}, {"display_name": "\u0441\u0435\u043b\u044c\u0441\u043a\u043e\u0435 \u043f\u043e\u0441\u0435\u043b\u0435\u043d\u0438\u0435 \u041e\u0441\u0441\u043e\u0440\u0430, \u041a\u0430\u0440\u0430\u0433\u0438\u043d\u0441\u043a\u0438\u0439 \u0440\u0430\u0439\u043e\u043d, \u041a\u0430\u043c\u0447\u0430\u0442\u0441\u043a\u0438\u0439 \u043a\u0440\u0430\u0439, \u0414\u0430\u043b\u044c\u043d\u0435\u0432\u043e\u0441\u0442\u043e\u0447\u043d\u044b\u0439 \u0444\u0435\u0434\u0435\u0440\u0430\u043b\u044c\u043d\u044b\u0439 \u043e\u043a\u0440\u0443\u0433, 688700, \u0420\u043e\u0441\u0441\u0438\u044f", "lat": 59.2980727, "lon": 162.53321155215636, "address": {"municipality": "\u0441\u0435\u043b\u044c\u0441\u043a\u043e\u0435 \u043f\u043e\u0441\u0435\u043b\u0435\u043d\u0438\u0435 \u041e\u0441\u0441\u043e\u0440\u0430", "county": "\u041a\u0430\u0440\u0430\u0433\u0438\u043d\u0441\u043a\u0438\u0439 \u0440\u0430\u0439\u043e\u043d", "state": "\u041a\u0430\u043c\u0447\u0430\u0442\u0441\u043a\u0438\u0439 \u043a\u0440\u0430\u0439", "region": "\u0414\u0430\u043b\u044c\u043d\u0435\u0432\u043e\u0441\u0442\u043e\u0447\u043d\u044b\u0439 \u0444\u0435\u0434\u0435\u0440\u0430\u043b\u044c\u043d\u044b\u0439 \u043e\u043a\u0440\u0443\u0433", "postcode": "688700", "country": "\u0420\u043e\u0441\u0441\u0438\u044f", "country_code": "ru"}}, {"display_name": "Sirmilik National Park, \u157f\u146d\u1585\u1456\u14d7\u1483 Qikiqtaaluk Region, \u14c4\u14c7\u1557\u1466 Nunavut, Canada", "lat": 73.25466605, "lon": -78.56162686912117, "address": {"municipality": "Sirmilik National Park", "county": "\u157f\u146d\u1585\u1456\u14d7\u1483 Qikiqtaaluk Region", "state": "\u14c4\u14c7\u1557\u1466 Nunavut", "country": "Canada", "country_code": "ca"}}, {"display_name": "\u0415\u043d\u0438\u0441\u0435\u0439\u0441\u043a\u0438\u0439 \u0440\u0430\u0439\u043e\u043d, \u041a\u0440\u0430\u0441\u043d\u043e\u044f\u0440\u0441\u043a\u0438\u0439 \u043a\u0440\u0430\u0439, \u0421\u0438\u0431\u0438\u0440\u0441\u043a\u0438\u0439 \u0444\u0435\u0434\u0435\u0440\u0430\u043b\u044c\u043d\u044b\u0439 \u043e\u043a\u0440\u0443\u0433, 663182, \u0420\u043e\u0441\u0441\u0438\u044f", "lat": 59.521623500000004, "lon": 89.57091567871419, "address": {"county": "\u0415\u043d\u0438\u0441\u0435\u0439\u0441\u043a\u0438\u0439 \u0440\u0430\u0439\u043e\u043d", "state": "\u041a\u0440\u0430\u0441\u043d\u043e\u044f\u0440\u0441\u043a\u0438\u0439 \u043a\u0440\u0430\u0439", "region": "\u0421\u0438\u0431\u0438\u0440\u0441\u043a\u0438\u0439 \u0444\u0435\u0434\u0435\u0440\u0430\u043b\u044c\u043d\u044b\u0439 \u043e\u043a\u0440\u0443\u0433", "postcode": "663182", "country": "\u0420\u043e\u0441\u0441\u0438\u044f", "country_code": "ru"}}, {"display_name": "Staza Kri\u017eac - \u0160pur\u010dev Brig - \u0160ugarska Duliba, Kri\u017eac, Op\u0107ina Karlobag, Li\u010dko-senjska \u017eupanija, Hrvatska", "lat": 44.439899491547216, "lon": 15.250382175845441, "address": {"road": "Staza Kri\u017eac - \u0160pur\u010dev Brig - \u0160ugarska Duliba", "hamlet": "Kri\u017eac", "municipality": "Op\u0107ina Karlobag", "county": "Li\u010dko-senjska \u017eupanija", "country": "Hrvatska", "country_code": "hr"}}, {"display_name": "Kalaallit Nunaat", "lat": 77.6192349, "lon": -42.8125967, "address": {"country": "Kalaallit Nunaat", "country_code": "gl"}}, {"display_name": "Kalaallit Nunaat", "lat": 77.6192349, "lon": -42.8125967, "address": {"country": "Kalaallit Nunaat", "country_code": "gl"}}, {"display_name": "\u0412\u044b\u0439\u0441\u043a\u043e\u0435 \u0441\u0435\u043b\u044c\u0441\u043a\u043e\u0435 \u043f\u043e\u0441\u0435\u043b\u0435\u043d\u0438\u0435, \u0412\u0435\u0440\u0445\u043d\u0435\u0442\u043e\u0435\u043c\u0441\u043a\u0438\u0439 \u0440\u0430\u0439\u043e\u043d, \u0410\u0440\u0445\u0430\u043d\u0433\u0435\u043b\u044c\u0441\u043a\u0430\u044f \u043e\u0431\u043b\u0430\u0441\u0442\u044c, \u0421\u0435\u0432\u0435\u0440\u043e-\u0417\u0430\u043f\u0430\u0434\u043d\u044b\u0439 \u0444\u0435\u0434\u0435\u0440\u0430\u043b\u044c\u043d\u044b\u0439 \u043e\u043a\u0440\u0443\u0433, \u0420\u043e\u0441\u0441\u0438\u044f", "lat": 62.9337315, "lon": 46.302176622572595, "address": {"municipality": "\u0412\u044b\u0439\u0441\u043a\u043e\u0435 \u0441\u0435\u043b\u044c\u0441\u043a\u043e\u0435 \u043f\u043e\u0441\u0435\u043b\u0435\u043d\u0438\u0435", "county": "\u0412\u0435\u0440\u0445\u043d\u0435\u0442\u043e\u0435\u043c\u0441\u043a\u0438\u0439 \u0440\u0430\u0439\u043e\u043d", "state": "\u0410\u0440\u0445\u0430\u043d\u0433\u0435\u043b\u044c\u0441\u043a\u0430\u044f \u043e\u0431\u043b\u0430\u0441\u0442\u044c", "region": "\u0421\u0435\u0432\u0435\u0440\u043e-\u0417\u0430\u043f\u0430\u0434\u043d\u044b\u0439 \u0444\u0435\u0434\u0435\u0440\u0430\u043b\u044c\u043d\u044b\u0439 \u043e\u043a\u0440\u0443\u0433", "country": "\u0420\u043e\u0441\u0441\u0438\u044f", "country_code": "ru"}}, {"display_name": "\u0645\u062d\u0627\u0641\u0638\u0629 \u0634\u0631\u0648\u0631\u0647, \u0645\u0646\u0637\u0642\u0629 \u0646\u062c\u0631\u0627\u0646, \u0627\u0644\u0633\u0639\u0648\u062f\u064a\u0629", "lat": 18.13887445, "lon": 46.97544539120808, "address": {"county": "\u0645\u062d\u0627\u0641\u0638\u0629 \u0634\u0631\u0648\u0631\u0647", "state": "\u0645\u0646\u0637\u0642\u0629 \u0646\u062c\u0631\u0627\u0646", "country": "\u0627\u0644\u0633\u0639\u0648\u062f\u064a\u0629", "country_code": "sa"}}, {"display_name": "North Slope, Alaska, United States", "lat": 69.5335129, "lon": -153.8220681, "address": {"county": "North Slope", "state": "Alaska", "country": "United States", "country_code": "us"}}, {"display_name": "\u7d22\u52a0\u4e61, \u6cbb\u591a\u53bf, \u0f61\u0f74\u0f63\u0f0b\u0f64\u0f74\u0f63\u0f0b\u0f56\u0f7c\u0f51\u0f0b\u0f62\u0f72\u0f42\u0f66\u0f0b\u0f62\u0f44\u0f0b\u0f66\u0f90\u0fb1\u0f7c\u0f44\u0f0b\u0f41\u0f74\u0f63\u0f0d \u7389\u6811\u85cf\u65cf\u81ea\u6cbb\u5dde, \u9752\u6d77\u7701, \u4e2d\u56fd", "lat": 33.891593, "lon": 93.67153, "address": {"town": "\u7d22\u52a0\u4e61", "county": "\u6cbb\u591a\u53bf", "region": "\u0f61\u0f74\u0f63\u0f0b\u0f64\u0f74\u0f63\u0f0b\u0f56\u0f7c\u0f51\u0f0b\u0f62\u0f72\u0f42\u0f66\u0f0b\u0f62\u0f44\u0f0b\u0f66\u0f90\u0fb1\u0f7c\u0f44\u0f0b\u0f41\u0f74\u0f63\u0f0d \u7389\u6811\u85cf\u65cf\u81ea\u6cbb\u5dde", "state": "\u9752\u6d77\u7701", "country": "\u4e2d\u56fd", "country_code": "cn"}}, {"display_name": "Victoria River, Victoria Daly Region, Northern Territory, Australia", "lat": -16.62229515, "lon": 131.51937676670238, "address": {"suburb": "Victoria River", "county": "Victoria Daly Region", "territory": "Northern Territory", "country": "Australia", "country_code": "au"}}, {"display_name": "Unorganized Borough, Alaska, United States", "lat": 63.417431050000005, "lon": -157.6718650484568, "address": {"county": "Unorganized Borough", "state": "Alaska", "country": "United States", "country_code": "us"}}, {"display_name": "Sermersooq, Kalaallit Nunaat", "lat": 66.0, "lon": -40.0, "address": {"municipality": "Sermersooq", "country": "Kalaallit Nunaat", "country_code": "gl"}}, {"display_name": "Pan Ban, Wentworth Shire Council, New South Wales, 2648, Australia", "lat": -33.2913597, "lon": 143.1475494, "address": {"hamlet": "Pan Ban", "municipality": "Wentworth Shire Council", "state": "New South Wales", "postcode": "2648", "country": "Australia", "country_code": "au"}}, {"display_name": "\u157f\u146d\u1585\u1456\u14d7\u1483 Qikiqtaaluk Region, \u14c4\u14c7\u1557\u1466 Nunavut, Canada", "lat": 76.9053119, "lon": -93.5025588, "address": {"county": "\u157f\u146d\u1585\u1456\u14d7\u1483 Qikiqtaaluk Region", "state": "\u14c4\u14c7\u1557\u1466 Nunavut", "country": "Canada", "country_code": "ca"}}, {"display_name": "438, Ga\u0142\u0105zki, gmina Ko\u017amin Wielkopolski, powiat krotoszy\u0144ski, wojew\u00f3dztwo wielkopolskie, 63-720, Polska", "lat": 51.839422553220416, "lon": 17.396796053047357, "address": {"road": "438", "village": "Ga\u0142\u0105zki", "municipality": "gmina Ko\u017amin Wielkopolski", "county": "powiat krotoszy\u0144ski", "state": "wojew\u00f3dztwo wielkopolskie", "postcode": "63-720", "country": "Polska", "country_code": "pl"}}, {"display_name": "KVNP Fire-Break - Kaikem Trail, Kaabong, Northern Region, Uganda", "lat": 3.7173553029212605, "lon": 33.8160081648084, "address": {"road": "KVNP Fire-Break - Kaikem Trail", "state": "Kaabong", "country": "Uganda", "country_code": "ug"}}, {"display_name": "\u6cb3\u5317\u7701, \u4e2d\u56fd", "lat": 39.0000001, "lon": 116.0, "address": {"state": "\u6cb3\u5317\u7701", "country": "\u4e2d\u56fd", "country_code": "cn"}}, {"display_name": "\u041b\u0438\u043d\u0434\u0438\u043d\u0441\u043a\u0438\u0439 \u043d\u0430\u0441\u043b\u0435\u0433, \u0416\u0438\u0433\u0430\u043d\u0441\u043a\u0438\u0439 \u043d\u0430\u0446\u0438\u043e\u043d\u0430\u043b\u044c\u043d\u044b\u0439 \u044d\u0432\u0435\u043d\u043a\u0438\u0439\u0441\u043a\u0438\u0439 \u0443\u043b\u0443\u0441, \u0420\u0435\u0441\u043f\u0443\u0431\u043b\u0438\u043a\u0430 \u0421\u0430\u0445\u0430 (\u042f\u043a\u0443\u0442\u0438\u044f), \u0414\u0430\u043b\u044c\u043d\u0435\u0432\u043e\u0441\u0442\u043e\u0447\u043d\u044b\u0439 \u0444\u0435\u0434\u0435\u0440\u0430\u043b\u044c\u043d\u044b\u0439 \u043e\u043a\u0440\u0443\u0433, \u0420\u043e\u0441\u0441\u0438\u044f", "lat": 66.04465210000001, "lon": 123.9749493137824, "address": {"municipality": "\u041b\u0438\u043d\u0434\u0438\u043d\u0441\u043a\u0438\u0439 \u043d\u0430\u0441\u043b\u0435\u0433", "county": "\u0416\u0438\u0433\u0430\u043d\u0441\u043a\u0438\u0439 \u043d\u0430\u0446\u0438\u043e\u043d\u0430\u043b\u044c\u043d\u044b\u0439 \u044d\u0432\u0435\u043d\u043a\u0438\u0439\u0441\u043a\u0438\u0439 \u0443\u043b\u0443\u0441", "state": "\u0420\u0435\u0441\u043f\u0443\u0431\u043b\u0438\u043a\u0430 \u0421\u0430\u0445\u0430 (\u042f\u043a\u0443\u0442\u0438\u044f)", "region": "\u0414\u0430\u043b\u044c\u043d\u0435\u0432\u043e\u0441\u0442\u043e\u0447\u043d\u044b\u0439 \u0444\u0435\u0434\u0435\u0440\u0430\u043b\u044c\u043d\u044b\u0439 \u043e\u043a\u0440\u0443\u0433", "country": "\u0420\u043e\u0441\u0441\u0438\u044f", "country_code": "ru"}}, {"display_name": "Moosstrasse, Obermoos, Gibswil, Fischenthal, Bezirk Hinwil, Z\u00fcrich, 8498, Schweiz/Suisse/Svizzera/Svizra", "lat": 47.311464694450244, "lon": 8.903600134551672, "address": {"road": "Moosstrasse", "isolated_dwelling": "Obermoos", "village": "Gibswil", "county": "Bezirk Hinwil", "state": "Z\u00fcrich", "postcode": "8498", "country": "Schweiz/Suisse/Svizzera/Svizra", "country_code": "ch"}}, {"display_name": "Bedourie, Diamantina Shire, Queensland, Australia", "lat": -24.4347645, "lon": 139.36003615919577, "address": {"suburb": "Bedourie", "municipality": "Diamantina Shire", "state": "Queensland", "country": "Australia", "country_code": "au"}}, {"display_name": "Lunda Norte, Angola", "lat": -8.5088253, "lon": 19.7538618, "address": {"state": "Lunda Norte", "country": "Angola", "country_code": "ao"}}, {"display_name": "\u0413\u043e\u0440\u043e\u0434\u0441\u043a\u0430\u044f \u0430\u0434\u043c\u0438\u043d\u0438\u0441\u0442\u0440\u0430\u0446\u0438\u044f \u0421\u0435\u043c\u0435\u0439, \u0412\u043e\u0441\u0442\u043e\u0447\u043d\u043e-\u041a\u0430\u0437\u0430\u0445\u0441\u0442\u0430\u043d\u0441\u043a\u0430\u044f \u043e\u0431\u043b\u0430\u0441\u0442\u044c, \u049a\u0430\u0437\u0430\u049b\u0441\u0442\u0430\u043d", "lat": 50.405029, "lon": 80.249176, "address": {"city": "\u0413\u043e\u0440\u043e\u0434\u0441\u043a\u0430\u044f \u0430\u0434\u043c\u0438\u043d\u0438\u0441\u0442\u0440\u0430\u0446\u0438\u044f \u0421\u0435\u043c\u0435\u0439", "state": "\u0412\u043e\u0441\u0442\u043e\u0447\u043d\u043e-\u041a\u0430\u0437\u0430\u0445\u0441\u0442\u0430\u043d\u0441\u043a\u0430\u044f \u043e\u0431\u043b\u0430\u0441\u0442\u044c", "country": "\u049a\u0430\u0437\u0430\u049b\u0441\u0442\u0430\u043d", "country_code": "kz"}}, {"display_name": "Lac-J\u00e9r\u00f4me, Minganie, C\u00f4te-Nord, Qu\u00e9bec, Canada", "lat": 51.5609512, "lon": -63.677935250000004, "address": {"city": "Lac-J\u00e9r\u00f4me", "county": "Minganie", "region": "C\u00f4te-Nord", "state": "Qu\u00e9bec", "country": "Canada", "country_code": "ca"}}, {"display_name": "Sorocabu\u00e7u, Ibi\u00fana, Regi\u00e3o Imediata de Sorocaba, Regi\u00e3o Metropolitana de Sorocaba, Regi\u00e3o Geogr\u00e1fica Intermedi\u00e1ria de Sorocaba, S\u00e3o Paulo, Regi\u00e3o Sudeste, 18150-000, Brasil", "lat": -23.7221142, "lon": -47.1785438, "address": {"hamlet": "Sorocabu\u00e7u", "city_district": "Ibi\u00fana", "town": "Ibi\u00fana", "municipality": "Regi\u00e3o Imediata de Sorocaba", "county": "Regi\u00e3o Metropolitana de Sorocaba", "state_district": "Regi\u00e3o Geogr\u00e1fica Intermedi\u00e1ria de Sorocaba", "state": "S\u00e3o Paulo", "region": "Regi\u00e3o Sudeste", "postcode": "18150-000", "country": "Brasil", "country_code": "br"}}, {"display_name": "Borno Yesu, Magumeri, Borno, Nigeria", "lat": 12.010031452912687, "lon": 12.492455459795126, "address": {"city": "Borno Yesu", "county": "Magumeri", "state": "Borno", "country": "Nigeria", "country_code": "ng"}}, {"display_name": "\u0646\u064a\u0627\u0644\u0627, \u062c\u0646\u0648\u0628 \u062f\u0627\u0631\u0641\u0648\u0631, 099, \u0627\u0644\u0633\u0648\u062f\u0627\u0646", "lat": 12.2809691, "lon": 24.7741672, "address": {"county": "\u0646\u064a\u0627\u0644\u0627", "state": "\u062c\u0646\u0648\u0628 \u062f\u0627\u0631\u0641\u0648\u0631", "postcode": "099", "country": "\u0627\u0644\u0633\u0648\u062f\u0627\u0646", "country_code": "sd"}}, {"display_name": "Vaadhoo", "lat": 7.025023, "lon": 75.9545415609148, "address": {"city": "Vaadhoo"}}, {"display_name": "12, Rue Th\u00e9odore Bassing, Vianden, Canton Vianden, 9405, L\u00ebtzebuerg", "lat": 49.93248875, "lon": 6.211613869710604, "address": {"house_number": "12", "road": "Rue Th\u00e9odore Bassing", "village": "Vianden", "county": "Canton Vianden", "postcode": "9405", "country": "L\u00ebtzebuerg", "country_code": "lu"}}, {"display_name": "\u0627\u0644\u062c\u0641\u0631\u0629, \u0644\u064a\u0628\u064a\u0627", "lat": 27.96469324798019, "lon": 18.979857373817143, "address": {"state": "\u0627\u0644\u062c\u0641\u0631\u0629", "country": "\u0644\u064a\u0628\u064a\u0627", "country_code": "ly"}}, {"display_name": "Mandera, Northeast Kenya, Kenya", "lat": 3.8167046, "lon": 39.8542857, "address": {"state": "Mandera", "region": "Northeast Kenya", "country": "Kenya", "country_code": "ke"}}, {"display_name": "Nubra, Leh District, Ladakh, 194401, India", "lat": 34.82495245, "lon": 77.4848744627627, "address": {"county": "Nubra", "state_district": "Leh District", "state": "Ladakh", "postcode": "194401", "country": "India", "country_code": "in"}}, {"display_name": "Avannaata, Kalaallit Nunaat", "lat": 74.96134359999999, "lon": -51.85824937385934, "address": {"state": "Avannaata", "country": "Kalaallit Nunaat", "country_code": "gl"}}, {"display_name": "Bermuda Triangle", "lat": 22.1200939, "lon": -69.45785416527703, "address": {"locality": "Bermuda Triangle"}}, {"display_name": "Telfer, Shire Of East Pilbara, Western Australia, Australia", "lat": -21.5177325, "lon": 123.52595630504817, "address": {"suburb": "Telfer", "municipality": "Shire Of East Pilbara", "state": "Western Australia", "country": "Australia", "country_code": "au"}}]